{"points": [{"title": "Healthy Traveling", "posts": [{"status": "publish", "title": "Healthy Traveling", "post_id": 261, "epoch": 1436048345, "link": "http://brendanebers.com/2015/07/04/healthy-traveling/", "location": null, "id": 17}], "longitude": -106.44495, "epoch": 1436048345, "latitude": 23.24846, "icon": "wordpress"}, {"city": null, "distance_from_prev": 8776.04922664223, "country": "Mexico", "speed_from_prev": 0.0205950113854907, "state": "Sinaloa", "longitude": -106.38049, "epoch": 1436116133, "latitude": 23.30074, "time_from_prev": 426125.0, "id": 3727, "icon": "position"}, {"city": null, "distance_from_prev": 15709.7586325533, "country": "Mexico", "speed_from_prev": 26.4474051053086, "state": "Sinaloa", "longitude": -106.25829, "epoch": 1436116727, "latitude": 23.21487, "time_from_prev": 594.0, "id": 3728, "icon": "position"}, {"city": "Las Higueras", "distance_from_prev": 15680.8320893455, "country": "Mexico", "speed_from_prev": 26.3987072211204, "state": "Sinaloa", "longitude": -106.11804, "epoch": 1436117321, "latitude": 23.15797, "time_from_prev": 594.0, "id": 3729, "icon": "position"}, {"city": "Las Higueras", "distance_from_prev": 16756.9437956486, "country": "Mexico", "speed_from_prev": 28.5467526331322, "state": "Sinaloa", "longitude": -105.99659, "epoch": 1436117908, "latitude": 23.05661, "time_from_prev": 587.0, "id": 3730, "icon": "position"}, {"city": "Las Higueras", "distance_from_prev": 14739.2907060591, "country": "Mexico", "speed_from_prev": 24.5654845100986, "state": "Sinaloa", "longitude": -105.87651, "epoch": 1436118508, "latitude": 22.9834, "time_from_prev": 600.0, "id": 3731, "icon": "position"}, {"city": null, "distance_from_prev": 15353.0914631735, "country": "Mexico", "speed_from_prev": 24.2928662391986, "state": "Sinaloa", "longitude": -105.7774, "epoch": 1436119140, "latitude": 22.87951, "time_from_prev": 632.0, "id": 3732, "icon": "position"}, {"city": "Ojo de Agua de Palmillas", "distance_from_prev": 16066.4070243664, "country": "Mexico", "speed_from_prev": 26.7773450406107, "state": "Sinaloa", "longitude": -105.67174, "epoch": 1436119740, "latitude": 22.77248, "time_from_prev": 600.0, "id": 3733, "icon": "position"}, {"city": "Ojo de Agua de Palmillas", "distance_from_prev": 13203.68026981, "country": "Mexico", "speed_from_prev": 23.7049915077378, "state": "Sinaloa", "longitude": -105.60966, "epoch": 1436120297, "latitude": 22.66808, "time_from_prev": 557.0, "id": 3734, "icon": "position"}, {"city": null, "distance_from_prev": 14142.6356536949, "country": "Mexico", "speed_from_prev": 23.7292544525082, "state": "Sinaloa", "longitude": -105.5654, "epoch": 1436120893, "latitude": 22.54716, "time_from_prev": 596.0, "id": 3735, "icon": "position"}, {"city": null, "distance_from_prev": 15448.3668132133, "country": "Mexico", "speed_from_prev": 25.8766613286655, "state": "Nayarit", "longitude": -105.44197, "epoch": 1436121490, "latitude": 22.46773, "time_from_prev": 597.0, "id": 3736, "icon": "position"}, {"city": null, "distance_from_prev": 11971.2200201747, "country": "Mexico", "speed_from_prev": 20.1196975128987, "state": "Nayarit", "longitude": -105.37845, "epoch": 1436122085, "latitude": 22.37718, "time_from_prev": 595.0, "id": 3737, "icon": "position"}, {"city": null, "distance_from_prev": 15341.5659310294, "country": "Mexico", "speed_from_prev": 24.6253064703521, "state": "Nayarit", "longitude": -105.31377, "epoch": 1436122708, "latitude": 22.25239, "time_from_prev": 623.0, "id": 3738, "icon": "position"}, {"city": null, "distance_from_prev": 16303.8879760221, "country": "Mexico", "speed_from_prev": 27.1731466267035, "state": "Nayarit", "longitude": -105.25154, "epoch": 1436123308, "latitude": 22.11704, "time_from_prev": 600.0, "id": 3739, "icon": "position"}, {"city": null, "distance_from_prev": 15244.2182286626, "country": "Mexico", "speed_from_prev": 26.8857464350311, "state": "Nayarit", "longitude": -105.15352, "epoch": 1436123875, "latitude": 22.01406, "time_from_prev": 567.0, "id": 3740, "icon": "position"}, {"city": "Ruiz", "distance_from_prev": 13029.5717006605, "country": "Mexico", "speed_from_prev": 21.8984398330428, "state": "Nayarit", "longitude": -105.10394, "epoch": 1436124470, "latitude": 21.90586, "time_from_prev": 595.0, "id": 3741, "icon": "position"}, {"city": null, "distance_from_prev": 15649.5895700473, "country": "Mexico", "speed_from_prev": 26.2577006208847, "state": "Nayarit", "longitude": -105.07535, "epoch": 1436125066, "latitude": 21.76707, "time_from_prev": 596.0, "id": 3742, "icon": "position"}, {"city": "Buenavista", "distance_from_prev": 12999.2765326686, "country": "Mexico", "speed_from_prev": 21.7016302715669, "state": "Nayarit", "longitude": -105.0276, "epoch": 1436125665, "latitude": 21.65848, "time_from_prev": 599.0, "id": 3743, "icon": "position"}, {"city": "Buenavista", "distance_from_prev": 5787.89622211147, "country": "Mexico", "speed_from_prev": 9.76036462413401, "state": "Nayarit", "longitude": -105.00839, "epoch": 1436126258, "latitude": 21.60939, "time_from_prev": 593.0, "id": 3744, "icon": "position"}, {"city": "Buenavista", "distance_from_prev": 2271.26823555621, "country": "Mexico", "speed_from_prev": 3.67519131967024, "state": "Nayarit", "longitude": -104.99817, "epoch": 1436126876, "latitude": 21.59124, "time_from_prev": 618.0, "id": 3745, "icon": "position"}, {"city": "Buenavista", "distance_from_prev": 5404.3563306394, "country": "Mexico", "speed_from_prev": 9.19108219496497, "state": "Nayarit", "longitude": -104.96113, "epoch": 1436127464, "latitude": 21.55686, "time_from_prev": 588.0, "id": 3746, "icon": "position"}, {"city": "Tepic", "distance_from_prev": 4560.98029173922, "country": "Mexico", "speed_from_prev": 7.60163381956536, "state": "Nayarit", "longitude": -104.93015, "epoch": 1436128064, "latitude": 21.52759, "time_from_prev": 600.0, "id": 3747, "icon": "position"}, {"city": "Tepic", "distance_from_prev": 14.1751793953405, "country": "Mexico", "speed_from_prev": 0.0241485168574795, "state": "Nayarit", "longitude": -104.93022, "epoch": 1436128651, "latitude": 21.52748, "time_from_prev": 587.0, "id": 3748, "icon": "position"}, {"city": "Tepic", "distance_from_prev": 1060.13558276843, "country": "Mexico", "speed_from_prev": 1.77577149542451, "state": "Nayarit", "longitude": -104.92551, "epoch": 1436129248, "latitude": 21.51898, "time_from_prev": 597.0, "id": 3749, "icon": "position"}, {"city": null, "distance_from_prev": 10841.0479907884, "country": "Mexico", "speed_from_prev": 17.2080126837912, "state": "Nayarit", "longitude": -104.83721, "epoch": 1436129878, "latitude": 21.46647, "time_from_prev": 630.0, "id": 3750, "icon": "position"}, {"city": "San Leonel", "distance_from_prev": 6205.22469064835, "country": "Mexico", "speed_from_prev": 10.3420411510806, "state": "Nayarit", "longitude": -104.78906, "epoch": 1436130478, "latitude": 21.43317, "time_from_prev": 600.0, "id": 3751, "icon": "position"}, {"city": "San Leonel", "distance_from_prev": 3.03356415077781, "country": "Mexico", "speed_from_prev": 0.00543649489386704, "state": "Nayarit", "longitude": -104.78908, "epoch": 1436131036, "latitude": 21.43319, "time_from_prev": 558.0, "id": 3752, "icon": "position"}, {"city": "San Leonel", "distance_from_prev": 3.03356415100511, "country": "Mexico", "speed_from_prev": 0.00508134698660823, "state": "Nayarit", "longitude": -104.78906, "epoch": 1436131633, "latitude": 21.43317, "time_from_prev": 597.0, "id": 3753, "icon": "position"}, {"city": "San Leonel", "distance_from_prev": 270.327179330406, "country": "Mexico", "speed_from_prev": 0.296086724348747, "state": "Nayarit", "longitude": -104.78722, "epoch": 1436132546, "latitude": 21.43144, "time_from_prev": 913.0, "id": 3754, "icon": "position"}, {"city": "San Leonel", "distance_from_prev": 17092.2619192816, "country": "Mexico", "speed_from_prev": 28.1585863579598, "state": "Nayarit", "longitude": -104.66458, "epoch": 1436133153, "latitude": 21.32831, "time_from_prev": 607.0, "id": 3755, "icon": "position"}, {"city": null, "distance_from_prev": 14779.5501789676, "country": "Mexico", "speed_from_prev": 25.0500850490976, "state": "Nayarit", "longitude": -104.59328, "epoch": 1436133743, "latitude": 21.21276, "time_from_prev": 590.0, "id": 3756, "icon": "position"}, {"city": null, "distance_from_prev": 18106.964402306, "country": "Mexico", "speed_from_prev": 28.7412133369937, "state": "Nayarit", "longitude": -104.45882, "epoch": 1436134373, "latitude": 21.10866, "time_from_prev": 630.0, "id": 3757, "icon": "position"}, {"city": "Los Toriles", "distance_from_prev": 14828.0954748024, "country": "Mexico", "speed_from_prev": 26.2444167695617, "state": "Nayarit", "longitude": -104.33293, "epoch": 1436134938, "latitude": 21.04561, "time_from_prev": 565.0, "id": 3758, "icon": "position"}, {"city": "Los Toriles", "distance_from_prev": 13956.1221950504, "country": "Mexico", "speed_from_prev": 23.8159081826798, "state": "Jalisco", "longitude": -104.20787, "epoch": 1436135524, "latitude": 20.99977, "time_from_prev": 586.0, "id": 3759, "icon": "position"}, {"city": "Los Toriles", "distance_from_prev": 6684.25696948224, "country": "Mexico", "speed_from_prev": 11.1218917961435, "state": "Jalisco", "longitude": -104.14383, "epoch": 1436136125, "latitude": 21.0051, "time_from_prev": 601.0, "id": 3760, "icon": "position"}, {"city": "Milpillas", "distance_from_prev": 16084.27113429, "country": "Mexico", "speed_from_prev": 27.1693769160304, "state": "Jalisco", "longitude": -104.01263, "epoch": 1436136717, "latitude": 20.92817, "time_from_prev": 592.0, "id": 3761, "icon": "position"}, {"city": "Tequila", "distance_from_prev": 17943.888724224, "country": "Mexico", "speed_from_prev": 30.1071958460134, "state": "Jalisco", "longitude": -103.86038, "epoch": 1436137313, "latitude": 20.85204, "time_from_prev": 596.0, "id": 3762, "icon": "position"}, {"city": null, "distance_from_prev": 18737.8300072925, "country": "Mexico", "speed_from_prev": 30.3201132804086, "state": "Jalisco", "longitude": -103.69318, "epoch": 1436137931, "latitude": 20.78934, "time_from_prev": 618.0, "id": 3763, "icon": "position"}, {"city": "La Venta del Astillero", "distance_from_prev": 8952.34939928173, "country": "Mexico", "speed_from_prev": 15.7058761390907, "state": "Jalisco", "longitude": -103.61392, "epoch": 1436138501, "latitude": 20.75801, "time_from_prev": 570.0, "id": 3764, "icon": "position"}, {"city": "La Venta del Astillero", "distance_from_prev": 8169.94161470631, "country": "Mexico", "speed_from_prev": 13.6393015270556, "state": "Jalisco", "longitude": -103.54208, "epoch": 1436139100, "latitude": 20.72837, "time_from_prev": 599.0, "id": 3765, "icon": "position"}, {"city": "Zapopan", "distance_from_prev": 16488.9520850381, "country": "Mexico", "speed_from_prev": 0.0335026222395928, "state": "Jalisco", "longitude": -103.41501, "epoch": 1436631269, "latitude": 20.63959, "time_from_prev": 492169.0, "id": 3766, "icon": "position"}, {"city": "Club de Golf Santa Anita", "distance_from_prev": 10231.1203483048, "country": "Mexico", "speed_from_prev": 16.9952165254232, "state": "Jalisco", "longitude": -103.46351, "epoch": 1436631871, "latitude": 20.55925, "time_from_prev": 602.0, "id": 3767, "icon": "position"}, {"city": "Santa Cruz de las Flores", "distance_from_prev": 8563.49600248971, "country": "Mexico", "speed_from_prev": 14.2724933374829, "state": "Jalisco", "longitude": -103.49338, "epoch": 1436632471, "latitude": 20.4872, "time_from_prev": 600.0, "id": 3768, "icon": "position"}, {"city": null, "distance_from_prev": 9362.17498186931, "country": "Mexico", "speed_from_prev": 15.5517856841683, "state": "Jalisco", "longitude": -103.55334, "epoch": 1436633073, "latitude": 20.42429, "time_from_prev": 602.0, "id": 3769, "icon": "position"}, {"city": "Zapotit\u00e1n de Hidalgo", "distance_from_prev": 13015.3358478401, "country": "Mexico", "speed_from_prev": 22.2104707301026, "state": "Jalisco", "longitude": -103.49435, "epoch": 1436633659, "latitude": 20.32072, "time_from_prev": 586.0, "id": 3770, "icon": "position"}, {"city": "Jocotepec", "distance_from_prev": 8017.17018288729, "country": "Mexico", "speed_from_prev": 13.3175584433344, "state": "Jalisco", "longitude": -103.42908, "epoch": 1436634261, "latitude": 20.28261, "time_from_prev": 602.0, "id": 3771, "icon": "position"}, {"city": "Jocotepec", "distance_from_prev": 315.037837368119, "country": "Mexico", "speed_from_prev": 0.525063062280198, "state": "Jalisco", "longitude": -103.43054, "epoch": 1436634861, "latitude": 20.2851, "time_from_prev": 600.0, "id": 3772, "icon": "position"}, {"city": "Jocotepec", "distance_from_prev": 102.107852636679, "country": "Mexico", "speed_from_prev": 0.17335798410302, "state": "Jalisco", "longitude": -103.42974, "epoch": 1436635450, "latitude": 20.28563, "time_from_prev": 589.0, "id": 3773, "icon": "position"}, {"city": "Jocotepec", "distance_from_prev": 82.7446773045138, "country": "Mexico", "speed_from_prev": 0.137907795507523, "state": "Jalisco", "longitude": -103.42991, "epoch": 1436636050, "latitude": 20.28636, "time_from_prev": 600.0, "id": 3774, "icon": "position"}, {"city": "Jocotepec", "distance_from_prev": 151.141736763692, "country": "Mexico", "speed_from_prev": 0.251902894606154, "state": "Jalisco", "longitude": -103.4306, "epoch": 1436636650, "latitude": 20.28516, "time_from_prev": 600.0, "id": 3775, "icon": "position"}, {"city": "Ajijic", "distance_from_prev": 14886.3947197288, "country": "Mexico", "speed_from_prev": 4.99041056645283, "state": "Jalisco", "longitude": -103.28866, "epoch": 1436639633, "latitude": 20.29725, "time_from_prev": 2983.0, "id": 3776, "icon": "position"}, {"city": "Ajijic", "distance_from_prev": 4671.127222399, "country": "Mexico", "speed_from_prev": 7.78521203733167, "state": "Jalisco", "longitude": -103.24394, "epoch": 1436640233, "latitude": 20.29691, "time_from_prev": 600.0, "id": 3777, "icon": "position"}, {"city": "San Antonio Tlayacapan", "distance_from_prev": 30.7347606269874, "country": "Mexico", "speed_from_prev": 0.0512246010449789, "state": "Jalisco", "longitude": -103.2442, "epoch": 1436640833, "latitude": 20.29704, "time_from_prev": 600.0, "id": 3778, "icon": "position"}, {"city": "Chapala", "distance_from_prev": 5642.28998719166, "country": "Mexico", "speed_from_prev": 9.49880469224185, "state": "Jalisco", "longitude": -103.19082, "epoch": 1436641427, "latitude": 20.28923, "time_from_prev": 594.0, "id": 3779, "icon": "position"}, {"city": "Chapala", "distance_from_prev": 1015.5756647572, "country": "Mexico", "speed_from_prev": 1.69262610792866, "state": "Jalisco", "longitude": -103.1879, "epoch": 1436642027, "latitude": 20.29798, "time_from_prev": 600.0, "id": 3780, "icon": "position"}, {"city": "Chapala", "distance_from_prev": 1259.03074833583, "country": "Mexico", "speed_from_prev": 2.08794485627832, "state": "Jalisco", "longitude": -103.19174, "epoch": 1436642630, "latitude": 20.2872, "time_from_prev": 603.0, "id": 3781, "icon": "position"}, {"city": "Chapala", "distance_from_prev": 89.4750947424678, "country": "Mexico", "speed_from_prev": 0.154267404728393, "state": "Jalisco", "longitude": -103.19259, "epoch": 1436643210, "latitude": 20.2873, "time_from_prev": 580.0, "id": 3782, "icon": "position"}, {"city": "Chapala", "distance_from_prev": 0.0, "country": "Mexico", "speed_from_prev": 0.0, "state": "Jalisco", "longitude": -103.19259, "epoch": 1436643810, "latitude": 20.2873, "time_from_prev": 600.0, "id": 3783, "icon": "position"}, {"city": "Chapala", "distance_from_prev": 203.080293417292, "country": "Mexico", "speed_from_prev": 0.338467155695487, "state": "Jalisco", "longitude": -103.1907, "epoch": 1436644410, "latitude": 20.28687, "time_from_prev": 600.0, "id": 3784, "icon": "position"}, {"city": "Chapala", "distance_from_prev": 598.010948476093, "country": "Mexico", "speed_from_prev": 0.899264584174575, "state": "Jalisco", "longitude": -103.19141, "epoch": 1436645075, "latitude": 20.29223, "time_from_prev": 665.0, "id": 3785, "icon": "position"}, {"city": "Chapala", "distance_from_prev": 993.10674884071, "country": "Mexico", "speed_from_prev": 1.83568715127673, "state": "Jalisco", "longitude": -103.19095, "epoch": 1436645616, "latitude": 20.30119, "time_from_prev": 541.0, "id": 3786, "icon": "position"}, {"city": null, "distance_from_prev": 10778.438081806, "country": "Mexico", "speed_from_prev": 19.0431768229787, "state": "Jalisco", "longitude": -103.22398, "epoch": 1436646182, "latitude": 20.39343, "time_from_prev": 566.0, "id": 3787, "icon": "position"}, {"city": null, "distance_from_prev": 14231.4046493971, "country": "Mexico", "speed_from_prev": 23.7190077489951, "state": "Jalisco", "longitude": -103.28295, "epoch": 1436646782, "latitude": 20.50934, "time_from_prev": 600.0, "id": 3788, "icon": "position"}, {"city": null, "distance_from_prev": 12210.1649182387, "country": "Mexico", "speed_from_prev": 20.3502748637312, "state": "Jalisco", "longitude": -103.31943, "epoch": 1436647382, "latitude": 20.61414, "time_from_prev": 600.0, "id": 3789, "icon": "position"}, {"city": "Guadalajara", "distance_from_prev": 6999.5549678635, "country": "Mexico", "speed_from_prev": 11.6854006141294, "state": "Jalisco", "longitude": -103.34726, "epoch": 1436647981, "latitude": 20.67168, "time_from_prev": 599.0, "id": 3790, "icon": "position"}, {"city": "Guadalajara", "distance_from_prev": 507.395861462261, "country": "Mexico", "speed_from_prev": 0.851335338023928, "state": "Jalisco", "longitude": -103.35161, "epoch": 1436648577, "latitude": 20.67374, "time_from_prev": 596.0, "id": 3791, "icon": "position"}, {"city": "Guadalajara", "distance_from_prev": 46.3772547269665, "country": "Mexico", "speed_from_prev": 0.0772954245449441, "state": "Jalisco", "longitude": -103.35135, "epoch": 1436649177, "latitude": 20.6734, "time_from_prev": 600.0, "id": 3792, "icon": "position"}, {"city": "Guadalajara", "distance_from_prev": 2772.36815151827, "country": "Mexico", "speed_from_prev": 4.62061358586378, "state": "Jalisco", "longitude": -103.36551, "epoch": 1436649777, "latitude": 20.6522, "time_from_prev": 600.0, "id": 3793, "icon": "position"}, {"city": "Zapopan", "distance_from_prev": 4138.20093731674, "country": "Mexico", "speed_from_prev": 6.9200684570514, "state": "Jalisco", "longitude": -103.40494, "epoch": 1436650375, "latitude": 20.64777, "time_from_prev": 598.0, "id": 3794, "icon": "position"}, {"title": "4 blog entries", "posts": [{"status": "publish", "title": "New Host Family, Food, and Friends", "post_id": 278, "epoch": 1436851876, "link": "http://brendanebers.com/2015/07/13/new-host-family-food-friends/", "location": null, "id": 12}, {"status": "publish", "title": "Tequila!", "post_id": 257, "epoch": 1436755100, "link": "http://brendanebers.com/2015/07/12/tequila/", "location": null, "id": 14}, {"status": "publish", "title": "Laguna de Chapala", "post_id": 255, "epoch": 1436661956, "link": "http://brendanebers.com/2015/07/11/july-11-laguna-de-chapala/", "location": null, "id": 15}, {"status": "publish", "title": "Homestay and Homesick", "post_id": 253, "epoch": 1436214862, "link": "http://brendanebers.com/2015/07/06/homestay-and-homesick/", "location": null, "id": 16}], "longitude": -103.42163, "epoch": 1436851876, "latitude": 20.64928, "icon": "wordpress"}, {"title": "6 blog entries", "posts": [{"status": "publish", "title": "Pet Project", "post_id": 318, "epoch": 1438116858, "link": "http://brendanebers.com/2015/07/28/pet-project/", "location": null, "id": 7}, {"status": "publish", "title": "Learning Hurdles", "post_id": 314, "epoch": 1438114421, "link": "http://brendanebers.com/2015/07/28/learning-hurdles/", "location": null, "id": 8}, {"status": "publish", "title": "Wednesday in Guadalajara", "post_id": 291, "epoch": 1437110673, "link": "http://brendanebers.com/2015/07/16/wednesday-in-guadalajara/", "location": null, "id": 10}, {"status": "publish", "title": "This Weekend", "post_id": 332, "epoch": 1438628294, "link": "http://brendanebers.com/2015/08/03/this-weekend/", "location": null, "id": 5}, {"status": "publish", "title": "Four weeks of Guadalajara", "post_id": 325, "epoch": 1438378746, "link": "http://brendanebers.com/2015/07/31/four-weeks-of-guadalajara/", "location": null, "id": 6}, {"status": "publish", "title": "New Horizons", "post_id": 288, "epoch": 1436935523, "link": "http://brendanebers.com/2015/07/14/new-horizons/", "location": null, "id": 11}], "longitude": -103.409392, "epoch": 1438116858, "latitude": 20.636802, "icon": "wordpress"}, {"city": "Zapop\u00e1n", "distance_from_prev": 27.3945324490426, "country": "Mexico", "speed_from_prev": 1.57904935220362e-05, "state": "Jalisco", "longitude": -103.40964, "epoch": 1438643832, "latitude": 20.63672, "time_from_prev": 1734875.0, "id": 3800}]}